     2.11           OBSERVATION DATA    MIXED               RINEX VERSION / TYPE
GNSS Simulator PR                       20171012 064602 UTC PGM / RUN BY / DATE
C1 modelled using GNSSSIM                                   COMMENT
https://github.com/GNSSSim/GNSSSimulator                    COMMENT
Header contents might be invalid. Only C1 is important.     COMMENT
MOBS                                                        MARKER NAME
50182M001                                                   MARKER NUMBER
geodesy@ga.gov.au   ---                                     OBSERVER / AGENCY
3007645             SEPT POLARX4TR      2.9.6               REC # / TYPE / VERS
CR20020709          ASH701945C_M    NONE                    ANT # / TYPE
 -4130636.5890  2894953.1210 -3890530.4420                  APPROX POSITION XYZ
        0.0000        0.0000        0.0000                  ANTENNA: DELTA H/E/N
     1    C1                                                # / TYPES OF OBSERV
     1     1                                                WAVELENGTH FACT L1/2
    30.000                                                  INTERVAL
  2017     9    10     0     0    0.0000000     GPS         TIME OF FIRST OBS
    18                                                      LEAP SECONDS
                                                            END OF HEADER
 17  9 10  1 13 30.0000000  0 22G01G03G04G06G07G08G09G11G16G22G23G26
                                G27G30G31
  26388553.964 0
  26537555.257 0
  26888396.911 0
  26543806.864 0
  26267414.866 0
  26631066.466 0
  26584761.376 0
  26104822.396 0
  26794976.705 0
  26650107.743 0
  26486856.606 0
  26581706.507 0
  26685908.778 0
  26471964.940 0
  26361108.871 0
 17  9 10  1 14  0.0000000  0 22G01G03G04G06G07G08G09G11G16G22G23G26
                                G27G30G31
  26390255.704 0
  26539013.477 0
  26887230.334 0
  26546432.937 0
  26269929.180 0
  26630680.243 0
  26586300.886 0
  26105342.823 0
  26794247.277 0
  26651788.215 0
  26488901.333 0
  26580379.675 0
  26684800.805 0
  26474873.157 0
  26358300.998 0
 17  9 10  1 14 30.0000000  0 22G01G03G04G06G07G08G09G11G16G22G23G26
                                G27G30G31
  26390644.338 0
  26538941.929 0
  26887562.470 0
  26546444.284 0
  26269779.696 0
  26630696.238 0
  26586347.952 0
  26105131.447 0
  26793811.843 0
  26652509.185 0
  26490248.544 0
  26580165.661 0
  26685068.360 0
  26474841.831 0
  26357947.205 0
 17  9 10  1 15  0.0000000  0 22G01G03G04G06G07G08G09G11G16G22G23G26
                                G27G30G31
  26391036.168 0
  26538870.528 0
  26887888.271 0
  26546455.924 0
  26269635.825 0
  26630710.640 0
  26586394.431 0
  26104928.981 0
  26793371.894 0
  26653228.167 0
  26491596.838 0
  26579951.268 0
  26685333.308 0
  26474812.094 0
  26357597.333 0
 17  9 10  1 15 30.0000000  0 22G01G03G04G06G07G08G09G11G16G22G23G26
                                G27G30G31
  26391431.441 0
  26538799.702 0
  26888208.153 0
  26546467.723 0
  26269497.695 0
  26630723.891 0
  26586440.467 0
  26104735.715 0
  26792927.815 0
  26653945.594 0
  26492946.515 0
  26579736.729 0
  26685596.084 0
  26474783.942 0
  26357251.540 0
 17  9 10  1 16  0.0000000  0 22G01G03G04G06G07G08G09G11G16G22G23G26
                                G27G30G31
  26391836.904 0
  26538738.736 0
  26888521.037 0
  26546487.330 0
  26269375.501 0
  26630738.854 0
  26586492.459 0
  26104556.774 0
  26792482.134 0
  26654668.952 0
  26494303.026 0
  26579520.354 0
  26685856.241 0
  26474767.339 0
  26356902.889 0
 17  9 10  1 16 30.0000000  0 22G01G03G04G06G07G08G09G11G16G22G23G26
                                G27G30G31
  26392243.846 0
  26538673.896 0
  26888823.433 0
  26546508.160 0
  26269257.352 0
  26630748.446 0
  26586541.642 0
  26104384.791 0
  26792027.758 0
  26655386.363 0
  26495656.695 0
  26579300.643 0
  26686109.633 0
  26474752.408 0
  26356556.272 0
 17  9 10  1 17  0.0000000  0 22G01G03G04G06G07G08G09G11G16G22G23G26
                                G27G30G31
  26392654.051 0
  26538609.468 0
  26889119.718 0
  26546529.235 0
  26269144.867 0
  26630756.686 0
  26586590.293 0
  26104221.847 0
  26791569.099 0
  26656101.988 0
  26497011.513 0
  26579080.672 0
  26686360.650 0
  26474739.064 0
  26356213.666 0
 17  9 10  1 17 30.0000000  0 22G01G03G04G06G07G08G09G11G16G22G23G26
                                G27G30G31
  26393067.512 0
  26538545.452 0
  26889409.889 0
  26546550.556 0
  26269038.049 0
  26630763.571 0
  26586638.410 0
  26104067.946 0
  26791106.164 0
  26656815.815 0
  26498367.453 0
  26578860.445 0
  26686609.290 0
  26474727.306 0
  26355875.075 0
 17  9 10  1 18  0.0000000  0 22G01G03G04G06G07G08G09G11G16G22G23G26
                                G27G30G31
  26393484.219 0
  26538481.851 0
  26889693.940 0
  26546572.121 0
  26268936.901 0
  26630769.103 0
  26586685.993 0
  26103923.091 0
  26790638.962 0
  26657527.829 0
  26499724.489 0
  26578639.965 0
  26686855.546 0
  26474717.135 0
  26355540.506 0
